{
"type": "FeatureCollection",
"name": "com_bomb",
"crs": { "type": "name", "properties": { "name": "urn:ogc:def:crs:OGC:1.3:CRS84" } },
"features": [
{ "type": "Feature", "properties": { "nombre": "Comisaria Vecinal 1-D", "tipo": "Comisaria" }, "geometry": { "type": "Point", "coordinates": [ -58.373244712194065, -34.601906174962252 ] } },
{ "type": "Feature", "properties": { "nombre": "Comisaria Vecinal 5-B", "tipo": "Comisaria" }, "geometry": { "type": "Point", "coordinates": [ -58.42492623842034, -34.628641041650802 ] } },
{ "type": "Feature", "properties": { "nombre": "Comisaria Vecinal 6-A", "tipo": "Comisaria" }, "geometry": { "type": "Point", "coordinates": [ -58.439501432968669, -34.608978570123014 ] } },
{ "type": "Feature", "properties": { "nombre": "Comisaria Vecinal 7-B", "tipo": "Comisaria" }, "geometry": { "type": "Point", "coordinates": [ -58.448087212589748, -34.626779912319897 ] } },
{ "type": "Feature", "properties": { "nombre": "Comisaria Comunal 6", "tipo": "Comisaria" }, "geometry": { "type": "Point", "coordinates": [ -58.453221042358265, -34.620382265669122 ] } },
{ "type": "Feature", "properties": { "nombre": "Comisaria Comunal 1", "tipo": "Comisaria" }, "geometry": { "type": "Point", "coordinates": [ -58.380178018988076, -34.594642912257243 ] } },
{ "type": "Feature", "properties": { "nombre": "Comisaria Vecinal 1-C (edificio anexo)", "tipo": "Comisaria" }, "geometry": { "type": "Point", "coordinates": [ -58.385607772884626, -34.622670050365095 ] } },
{ "type": "Feature", "properties": { "nombre": "Comisaria Comunal 2", "tipo": "Comisaria" }, "geometry": { "type": "Point", "coordinates": [ -58.392358576820591, -34.591136945873416 ] } },
{ "type": "Feature", "properties": { "nombre": "Comisaria Vecinal 1-C", "tipo": "Comisaria" }, "geometry": { "type": "Point", "coordinates": [ -58.390748668282605, -34.622586758775967 ] } },
{ "type": "Feature", "properties": { "nombre": "Comisaria Vecinal 2-B", "tipo": "Comisaria" }, "geometry": { "type": "Point", "coordinates": [ -58.406719292030168, -34.594078522593456 ] } },
{ "type": "Feature", "properties": { "nombre": "Comisaria Vecinal 1-B (edificio anexo)", "tipo": "Comisaria" }, "geometry": { "type": "Point", "coordinates": [ -58.374147124084473, -34.620278488628998 ] } },
{ "type": "Feature", "properties": { "nombre": "Comisaria Vecinal 3-B", "tipo": "Comisaria" }, "geometry": { "type": "Point", "coordinates": [ -58.403226626979396, -34.626032231837875 ] } },
{ "type": "Feature", "properties": { "nombre": "Comisaria Vecinal 14-A", "tipo": "Comisaria" }, "geometry": { "type": "Point", "coordinates": [ -58.41592730316615, -34.58773209769253 ] } },
{ "type": "Feature", "properties": { "nombre": "Comisaria Vecinal 1-E", "tipo": "Comisaria" }, "geometry": { "type": "Point", "coordinates": [ -58.363990210472046, -34.624279357208245 ] } },
{ "type": "Feature", "properties": { "nombre": "Comisaria Vecinal 4-C", "tipo": "Comisaria" }, "geometry": { "type": "Point", "coordinates": [ -58.360587582793428, -34.634169207037779 ] } },
{ "type": "Feature", "properties": { "nombre": "Comisaria Vecinal 4-D (edificio anexo)", "tipo": "Comisaria" }, "geometry": { "type": "Point", "coordinates": [ -58.374908589749083, -34.638062721131121 ] } },
{ "type": "Feature", "properties": { "nombre": "Comisaria Vecinal 15-B", "tipo": "Comisaria" }, "geometry": { "type": "Point", "coordinates": [ -58.441084301406413, -34.599320559247566 ] } },
{ "type": "Feature", "properties": { "nombre": "Comisaria Vecinal 1-A", "tipo": "Comisaria" }, "geometry": { "type": "Point", "coordinates": [ -58.388895878431178, -34.601939737721302 ] } },
{ "type": "Feature", "properties": { "nombre": "Comisaria Vecinal 4-D", "tipo": "Comisaria" }, "geometry": { "type": "Point", "coordinates": [ -58.374727291620523, -34.647284050292029 ] } },
{ "type": "Feature", "properties": { "nombre": "Comisaria Vecinal 14-B", "tipo": "Comisaria" }, "geometry": { "type": "Point", "coordinates": [ -58.438955799815417, -34.5733085675013 ] } },
{ "type": "Feature", "properties": { "nombre": "Comisaria Vecinal 13-C", "tipo": "Comisaria" }, "geometry": { "type": "Point", "coordinates": [ -58.456284813714497, -34.560144769127078 ] } },
{ "type": "Feature", "properties": { "nombre": "Comisaria Vecinal 4-B", "tipo": "Comisaria" }, "geometry": { "type": "Point", "coordinates": [ -58.41715600739127, -34.644794741939982 ] } },
{ "type": "Feature", "properties": { "nombre": "Comisaria Vecinal 13-B", "tipo": "Comisaria" }, "geometry": { "type": "Point", "coordinates": [ -58.463326627139544, -34.551375504949043 ] } },
{ "type": "Feature", "properties": { "nombre": "Comisaria Vecinal 8-B", "tipo": "Comisaria" }, "geometry": { "type": "Point", "coordinates": [ -58.454266937896904, -34.677357513763219 ] } },
{ "type": "Feature", "properties": { "nombre": "Comisaria Vecinal 12-C", "tipo": "Comisaria" }, "geometry": { "type": "Point", "coordinates": [ -58.47582109143319, -34.573116280337935 ] } },
{ "type": "Feature", "properties": { "nombre": "Comisaria Comunal 7", "tipo": "Comisaria" }, "geometry": { "type": "Point", "coordinates": [ -58.458256002822004, -34.630923532550966 ] } },
{ "type": "Feature", "properties": { "nombre": "Comisaria Vecinal 12-B", "tipo": "Comisaria" }, "geometry": { "type": "Point", "coordinates": [ -58.490057408933467, -34.578689469505257 ] } },
{ "type": "Feature", "properties": { "nombre": "Comisaria Vecinal 1-B", "tipo": "Comisaria" }, "geometry": { "type": "Point", "coordinates": [ -58.378577493662711, -34.617161610468784 ] } },
{ "type": "Feature", "properties": { "nombre": "Comisaria Vecinal 9-B", "tipo": "Comisaria" }, "geometry": { "type": "Point", "coordinates": [ -58.476336706506359, -34.641462310639 ] } },
{ "type": "Feature", "properties": { "nombre": "Comisaria Comunal 11", "tipo": "Comisaria" }, "geometry": { "type": "Point", "coordinates": [ -58.472991143527551, -34.611120412457304 ] } },
{ "type": "Feature", "properties": { "nombre": "Comisaria Comunal 9", "tipo": "Comisaria" }, "geometry": { "type": "Point", "coordinates": [ -58.501165657356765, -34.661993931226831 ] } },
{ "type": "Feature", "properties": { "nombre": "Comisaria Comunal 10", "tipo": "Comisaria" }, "geometry": { "type": "Point", "coordinates": [ -58.483779508298703, -34.628806685374677 ] } },
{ "type": "Feature", "properties": { "nombre": "Comisaria Vecinal 10-B", "tipo": "Comisaria" }, "geometry": { "type": "Point", "coordinates": [ -58.524038849047407, -34.629536123433425 ] } },
{ "type": "Feature", "properties": { "nombre": "Comisaria Vecinal 11-B", "tipo": "Comisaria" }, "geometry": { "type": "Point", "coordinates": [ -58.515605877471778, -34.598314648539677 ] } },
{ "type": "Feature", "properties": { "nombre": "Comisaria Vecinal 11-B (edificio anexo)", "tipo": "Comisaria" }, "geometry": { "type": "Point", "coordinates": [ -58.499367255481999, -34.589712834957723 ] } },
{ "type": "Feature", "properties": { "nombre": "Comisaria Vecinal 8-A", "tipo": "Comisaria" }, "geometry": { "type": "Point", "coordinates": [ -58.474888855290772, -34.679035019327983 ] } },
{ "type": "Feature", "properties": { "nombre": "Comisaria Vecinal 12-A", "tipo": "Comisaria" }, "geometry": { "type": "Point", "coordinates": [ -58.482525446886825, -34.565145098017027 ] } },
{ "type": "Feature", "properties": { "nombre": "Comisaria Comunal 3", "tipo": "Comisaria" }, "geometry": { "type": "Point", "coordinates": [ -58.394789124657244, -34.603418415535614 ] } },
{ "type": "Feature", "properties": { "nombre": "Comisaria Vecinal 7-C", "tipo": "Comisaria" }, "geometry": { "type": "Point", "coordinates": [ -58.464820921530752, -34.616113715966975 ] } },
{ "type": "Feature", "properties": { "nombre": "Comisaria Comunal 13", "tipo": "Comisaria" }, "geometry": { "type": "Point", "coordinates": [ -58.444068027691543, -34.554821646901239 ] } },
{ "type": "Feature", "properties": { "nombre": "Comisaria Comunal 8", "tipo": "Comisaria" }, "geometry": { "type": "Point", "coordinates": [ -58.468943687822716, -34.683121229081834 ] } },
{ "type": "Feature", "properties": { "nombre": "Comisaria Comunal 14", "tipo": "Comisaria" }, "geometry": { "type": "Point", "coordinates": [ -58.413658918515395, -34.581269722933584 ] } },
{ "type": "Feature", "properties": { "nombre": "Comisaria Vecinal 10-C", "tipo": "Comisaria" }, "geometry": { "type": "Point", "coordinates": [ -58.505086527128014, -34.63996692356713 ] } },
{ "type": "Feature", "properties": { "nombre": "Comisaria Vecinal 3-A", "tipo": "Comisaria" }, "geometry": { "type": "Point", "coordinates": [ -58.404010640943007, -34.603211175752499 ] } },
{ "type": "Feature", "properties": { "nombre": "Comisaria Vecinal 3-A (edificio anexo)", "tipo": "Comisaria" }, "geometry": { "type": "Point", "coordinates": [ -58.409279648726304, -34.617057605942421 ] } },
{ "type": "Feature", "properties": { "nombre": "Comisaria Comunal 5", "tipo": "Comisaria" }, "geometry": { "type": "Point", "coordinates": [ -58.415558763467757, -34.604428600364265 ] } },
{ "type": "Feature", "properties": { "nombre": "Comisaria Comunal 12", "tipo": "Comisaria" }, "geometry": { "type": "Point", "coordinates": [ -58.490909236863672, -34.551103084235464 ] } },
{ "type": "Feature", "properties": { "nombre": "Comisaria Comunal 15", "tipo": "Comisaria" }, "geometry": { "type": "Point", "coordinates": [ -58.451230393282835, -34.590420189796575 ] } },
{ "type": "Feature", "properties": { "nombre": "Comisaria Comunal 4", "tipo": "Comisaria" }, "geometry": { "type": "Point", "coordinates": [ -58.40283020899448, -34.641949534782775 ] } },
{ "type": "Feature", "properties": { "nombre": "DESTACAMENTO PALERMO", "tipo": "Destacamento Bomberos" }, "geometry": { "type": "Point", "coordinates": [ -58.435809486911602, -34.5775263468677 ] } },
{ "type": "Feature", "properties": { "nombre": "DESTACAMENTO VELEZ SARSFIELD", "tipo": "Destacamento Bomberos" }, "geometry": { "type": "Point", "coordinates": [ -58.487654084070499, -34.644895236961702 ] } },
{ "type": "Feature", "properties": { "nombre": "DESTACAMENTO GER CABALLITO", "tipo": "Destacamento Bomberos" }, "geometry": { "type": "Point", "coordinates": [ -58.4354148551663, -34.630275485373502 ] } },
{ "type": "Feature", "properties": { "nombre": "DESTACAMENTO G.E.R SAAVEDRA", "tipo": "Destacamento Bomberos" }, "geometry": { "type": "Point", "coordinates": [ -58.479216427517599, -34.553317507439303 ] } },
{ "type": "Feature", "properties": { "nombre": "CUARTEL CENTRAL", "tipo": "Destacamento Bomberos" }, "geometry": { "type": "Point", "coordinates": [ -58.388147588803399, -34.613320845174201 ] } },
{ "type": "Feature", "properties": { "nombre": "ESTACION II PATRICIOS", "tipo": "Destacamento Bomberos" }, "geometry": { "type": "Point", "coordinates": [ -58.4030097602149, -34.636474665736998 ] } },
{ "type": "Feature", "properties": { "nombre": "DESTACAMENTO NUEVA POMPEYA", "tipo": "Destacamento Bomberos" }, "geometry": { "type": "Point", "coordinates": [ -58.417003108435402, -34.658742912683799 ] } },
{ "type": "Feature", "properties": { "nombre": "ESTACION III BARRACAS", "tipo": "Destacamento Bomberos" }, "geometry": { "type": "Point", "coordinates": [ -58.367343851634203, -34.637280773032103 ] } },
{ "type": "Feature", "properties": { "nombre": "ESTACION IV RECOLETA", "tipo": "Destacamento Bomberos" }, "geometry": { "type": "Point", "coordinates": [ -58.402437178082003, -34.589980796765502 ] } },
{ "type": "Feature", "properties": { "nombre": "ESTACION V BELGRANO", "tipo": "Destacamento Bomberos" }, "geometry": { "type": "Point", "coordinates": [ -58.457105845367202, -34.5601098178958 ] } },
{ "type": "Feature", "properties": { "nombre": "DESTACAMENTO URQUIZA", "tipo": "Destacamento Bomberos" }, "geometry": { "type": "Point", "coordinates": [ -58.489880525598103, -34.579028032901697 ] } },
{ "type": "Feature", "properties": { "nombre": "ESTACION VI VILLA CRESPO", "tipo": "Destacamento Bomberos" }, "geometry": { "type": "Point", "coordinates": [ -58.440390262770599, -34.598679299844697 ] } },
{ "type": "Feature", "properties": { "nombre": "ESTACION VII FLORES", "tipo": "Destacamento Bomberos" }, "geometry": { "type": "Point", "coordinates": [ -58.460112544364101, -34.629246347664903 ] } },
{ "type": "Feature", "properties": { "nombre": "ESTACION VIII NUEVA CHICAGO", "tipo": "Destacamento Bomberos" }, "geometry": { "type": "Point", "coordinates": [ -58.4957235573331, -34.665966339284601 ] } },
{ "type": "Feature", "properties": { "nombre": "ESTACION IX VERSAILLES", "tipo": "Destacamento Bomberos" }, "geometry": { "type": "Point", "coordinates": [ -58.5241375369772, -34.629211898703304 ] } },
{ "type": "Feature", "properties": { "nombre": "DESTACAMENTO VILLA DEVOTO", "tipo": "Destacamento Bomberos" }, "geometry": { "type": "Point", "coordinates": [ -58.515541623284797, -34.598276161994498 ] } },
{ "type": "Feature", "properties": { "nombre": "DESTACAMENTO LA BOCA", "tipo": "Destacamento Bomberos" }, "geometry": { "type": "Point", "coordinates": [ -58.356745669429998, -34.637981106995397 ] } },
{ "type": "Feature", "properties": { "nombre": "ESTACION X LUGANO", "tipo": "Destacamento Bomberos" }, "geometry": { "type": "Point", "coordinates": [ -58.469693664763298, -34.683706160370697 ] } },
{ "type": "Feature", "properties": { "nombre": "DESTACAMENTO RETIRO", "tipo": "Destacamento Bomberos" }, "geometry": { "type": "Point", "coordinates": [ -58.3754210746621, -34.5861059948476 ] } },
{ "type": "Feature", "properties": { "nombre": "DESTACAMENTO ONCE", "tipo": "Destacamento Bomberos" }, "geometry": { "type": "Point", "coordinates": [ -58.408383217441397, -34.6080672233117 ] } },
{ "type": "Feature", "properties": { "nombre": "DIVISION CUARTEL XI ALBARIÃ‘O", "tipo": "Destacamento Bomberos" }, "geometry": { "type": "Point", "coordinates": [ -58.486279540800098, -34.673010567996101 ] } },
{ "type": "Feature", "properties": { "nombre": "CUARTEL CENTRAL PREFECTURA NAVAL ARGENTINA", "tipo": "Destacamento Bomberos" }, "geometry": { "type": "Point", "coordinates": [ -58.375149607778297, -34.581198683617401 ] } },
{ "type": "Feature", "properties": { "nombre": "DESTACAMENTO PREFECTURA NAVAL ARGENTINA", "tipo": "Destacamento Bomberos" }, "geometry": { "type": "Point", "coordinates": [ -58.356498333357003, -34.6184937388199 ] } },
{ "type": "Feature", "properties": { "nombre": "VOLUNTARIO DE SAN TELMO PUERTO MADERO", "tipo": "Destacamento Bomberos" }, "geometry": { "type": "Point", "coordinates": [ -58.369971941862502, -34.622452189216503 ] } },
{ "type": "Feature", "properties": { "nombre": "VOLUNTARIOS VUELTA DE ROCHA", "tipo": "Destacamento Bomberos" }, "geometry": { "type": "Point", "coordinates": [ -58.360603990941598, -34.644296874043498 ] } },
{ "type": "Feature", "properties": { "nombre": "VOLUNTARIOS DE LA BOCA", "tipo": "Destacamento Bomberos" }, "geometry": { "type": "Point", "coordinates": [ -58.361897270601098, -34.635323216122799 ] } },
{ "type": "Feature", "properties": { "nombre": "VOLUNTARIOS VILLA SOLDATI", "tipo": "Destacamento Bomberos" }, "geometry": { "type": "Point", "coordinates": [ -58.441109860223101, -34.6650732467224 ] } },
{ "type": "Feature", "properties": { "nombre": "DESTACAMENTO LINIERS", "tipo": "Destacamento Bomberos" }, "geometry": { "type": "Point", "coordinates": [ -58.505085025337401, -34.640014248657501 ] } },
{ "type": "Feature", "properties": { "nombre": "DESTACAMENTO NUÃ‘EZ", "tipo": "Destacamento Bomberos" }, "geometry": { "type": "Point", "coordinates": [ -58.460171554106701, -34.539057420001903 ] } },
{ "type": "Feature", "properties": { "nombre": "DESTACAMENTO CHACARITA", "tipo": "Destacamento Bomberos" }, "geometry": { "type": "Point", "coordinates": [ -58.452713765872502, -34.592108541072299 ] } }
]
}
